[{"sourceCity":{"id":2,"name":"Antwerp","location":{"latitude":51.2194475,"longitude":4.4024643}},"destinationCity":{"id":3,"name":"Athens","location":{"latitude":37.9837155,"longitude":23.7293097}},"distance":2766},{"sourceCity":{"id":2,"name":"Antwerp","location":{"latitude":51.2194475,"longitude":4.4024643}},"destinationCity":{"id":4,"name":"Barcelona","location":{"latitude":41.3850639,"longitude":2.1734035}},"distance":1465},{"sourceCity":{"id":2,"name":"Antwerp","location":{"latitude":51.2194475,"longitude":4.4024643}},"destinationCity":{"id":5,"name":"Berlin","location":{"latitude":52.52000659999999,"longitude":13.404954}},"distance":723},{"sourceCity":{"id":2,"name":"Antwerp","location":{"latitude":51.2194475,"longitude":4.4024643}},"destinationCity":{"id":6,"name":"Bern","location":{"latitude":46.9479222,"longitude":7.444608499999999}},"distance":704},{"sourceCity":{"id":2,"name":"Antwerp","location":{"latitude":51.2194475,"longitude":4.4024643}},"destinationCity":{"id":7,"name":"Brussels","location":{"latitude":50.8503396,"longitude":4.3517103}},"distance":46},{"sourceCity":{"id":2,"name":"Antwerp","location":{"latitude":51.2194475,"longitude":4.4024643}},"destinationCity":{"id":8,"name":"Calais","location":{"latitude":50.95129000000001,"longitude":1.858686}},"distance":211},{"sourceCity":{"id":2,"name":"Antwerp","location":{"latitude":51.2194475,"longitude":4.4024643}},"destinationCity":{"id":9,"name":"Cologne","location":{"latitude":50.937531,"longitude":6.9602786}},"distance":237},{"sourceCity":{"id":2,"name":"Antwerp","location":{"latitude":51.2194475,"longitude":4.4024643}},"destinationCity":{"id":10,"name":"Copenhagen","location":{"latitude":55.6760968,"longitude":12.5683371}},"distance":861},{"sourceCity":{"id":2,"name":"Antwerp","location":{"latitude":51.2194475,"longitude":4.4024643}},"destinationCity":{"id":11,"name":"Edinburgh","location":{"latitude":55.953252,"longitude":-3.188267}},"distance":1005},{"sourceCity":{"id":2,"name":"Antwerp","location":{"latitude":51.2194475,"longitude":4.4024643}},"destinationCity":{"id":12,"name":"Frankfurt","location":{"latitude":50.1109221,"longitude":8.6821267}},"distance":427},{"sourceCity":{"id":2,"name":"Antwerp","location":{"latitude":51.2194475,"longitude":4.4024643}},"destinationCity":{"id":13,"name":"Geneva","location":{"latitude":46.1983922,"longitude":6.142296099999999}},"distance":840},{"sourceCity":{"id":2,"name":"Antwerp","location":{"latitude":51.2194475,"longitude":4.4024643}},"destinationCity":{"id":14,"name":"Genoa","location":{"latitude":44.4056499,"longitude":8.946256}},"distance":1136},{"sourceCity":{"id":2,"name":"Antwerp","location":{"latitude":51.2194475,"longitude":4.4024643}},"destinationCity":{"id":15,"name":"Hamburg","location":{"latitude":53.5510846,"longitude":9.9936818}},"distance":450},{"sourceCity":{"id":2,"name":"Antwerp","location":{"latitude":51.2194475,"longitude":4.4024643}},"destinationCity":{"id":16,"name":"Le Havre","location":{"latitude":49.49437,"longitude":0.107929}},"distance":453},{"sourceCity":{"id":2,"name":"Antwerp","location":{"latitude":51.2194475,"longitude":4.4024643}},"destinationCity":{"id":17,"name":"Lisbon","location":{"latitude":38.7252993,"longitude":-9.150036400000001}},"distance":2126},{"sourceCity":{"id":2,"name":"Antwerp","location":{"latitude":51.2194475,"longitude":4.4024643}},"destinationCity":{"id":18,"name":"London","location":{"latitude":51.51121389999999,"longitude":-0.1198244}},"distance":337},{"sourceCity":{"id":2,"name":"Antwerp","location":{"latitude":51.2194475,"longitude":4.4024643}},"destinationCity":{"id":19,"name":"Luxembourg","location":{"latitude":49.815273,"longitude":6.129582999999999}},"distance":280},{"sourceCity":{"id":2,"name":"Antwerp","location":{"latitude":51.2194475,"longitude":4.4024643}},"destinationCity":{"id":20,"name":"Lyon","location":{"latitude":45.764043,"longitude":4.835659}},"distance":821},{"sourceCity":{"id":2,"name":"Antwerp","location":{"latitude":51.2194475,"longitude":4.4024643}},"destinationCity":{"id":21,"name":"Madrid","location":{"latitude":40.4167754,"longitude":-3.7037902}},"distance":1608},{"sourceCity":{"id":2,"name":"Antwerp","location":{"latitude":51.2194475,"longitude":4.4024643}},"destinationCity":{"id":22,"name":"Marseille","location":{"latitude":43.296482,"longitude":5.36978}},"distance":1149},{"sourceCity":{"id":2,"name":"Antwerp","location":{"latitude":51.2194475,"longitude":4.4024643}},"destinationCity":{"id":23,"name":"Milan","location":{"latitude":45.4654542,"longitude":9.186516}},"distance":980},{"sourceCity":{"id":2,"name":"Antwerp","location":{"latitude":51.2194475,"longitude":4.4024643}},"destinationCity":{"id":24,"name":"Munich","location":{"latitude":48.1351253,"longitude":11.5819806}},"distance":832},{"sourceCity":{"id":2,"name":"Antwerp","location":{"latitude":51.2194475,"longitude":4.4024643}},"destinationCity":{"id":25,"name":"Naples","location":{"latitude":26.1420358,"longitude":-81.7948103}},"distance":1894},{"sourceCity":{"id":2,"name":"Antwerp","location":{"latitude":51.2194475,"longitude":4.4024643}},"destinationCity":{"id":26,"name":"Nice","location":{"latitude":43.696036,"longitude":7.265592}},"distance":1261},{"sourceCity":{"id":2,"name":"Antwerp","location":{"latitude":51.2194475,"longitude":4.4024643}},"destinationCity":{"id":27,"name":"Paris","location":{"latitude":48.856614,"longitude":2.3522219}},"distance":340},{"sourceCity":{"id":2,"name":"Antwerp","location":{"latitude":51.2194475,"longitude":4.4024643}},"destinationCity":{"id":28,"name":"Prague","location":{"latitude":50.0755381,"longitude":14.4378005}},"distance":870},{"sourceCity":{"id":2,"name":"Antwerp","location":{"latitude":51.2194475,"longitude":4.4024643}},"destinationCity":{"id":29,"name":"Rome","location":{"latitude":41.8929163,"longitude":12.4825199}},"distance":1661},{"sourceCity":{"id":2,"name":"Antwerp","location":{"latitude":51.2194475,"longitude":4.4024643}},"destinationCity":{"id":30,"name":"Rotterdam","location":{"latitude":51.92421599999999,"longitude":4.481776}},"distance":100},{"sourceCity":{"id":2,"name":"Antwerp","location":{"latitude":51.2194475,"longitude":4.4024643}},"destinationCity":{"id":31,"name":"Strasbourg","location":{"latitude":48.583148,"longitude":7.747882}},"distance":544},{"sourceCity":{"id":2,"name":"Antwerp","location":{"latitude":51.2194475,"longitude":4.4024643}},"destinationCity":{"id":32,"name":"Stuttgart","location":{"latitude":48.7754181,"longitude":9.181758799999999}},"distance":659},{"sourceCity":{"id":2,"name":"Antwerp","location":{"latitude":51.2194475,"longitude":4.4024643}},"destinationCity":{"id":33,"name":"The Hague","location":{"latitude":52.0704978,"longitude":4.3006999}},"distance":139},{"sourceCity":{"id":2,"name":"Antwerp","location":{"latitude":51.2194475,"longitude":4.4024643}},"destinationCity":{"id":34,"name":"Turin","location":{"latitude":45.07098200000001,"longitude":7.685676}},"distance":1090},{"sourceCity":{"id":2,"name":"Antwerp","location":{"latitude":51.2194475,"longitude":4.4024643}},"destinationCity":{"id":35,"name":"Venice","location":{"latitude":45.4408474,"longitude":12.3155151}},"distance":1275},{"sourceCity":{"id":2,"name":"Antwerp","location":{"latitude":51.2194475,"longitude":4.4024643}},"destinationCity":{"id":36,"name":"Vienna","location":{"latitude":48.2081743,"longitude":16.3738189}},"distance":1180},{"sourceCity":{"id":2,"name":"Antwerp","location":{"latitude":51.2194475,"longitude":4.4024643}},"destinationCity":{"id":37,"name":"Zurich","location":{"latitude":47.3686498,"longitude":8.539182499999999}},"distance":687},{"sourceCity":{"id":4,"name":"Barcelona","location":{"latitude":41.3850639,"longitude":2.1734035}},"destinationCity":{"id":5,"name":"Berlin","location":{"latitude":52.52000659999999,"longitude":13.404954}},"distance":1899},{"sourceCity":{"id":4,"name":"Barcelona","location":{"latitude":41.3850639,"longitude":2.1734035}},"destinationCity":{"id":6,"name":"Bern","location":{"latitude":46.9479222,"longitude":7.444608499999999}},"distance":913},{"sourceCity":{"id":4,"name":"Barcelona","location":{"latitude":41.3850639,"longitude":2.1734035}},"destinationCity":{"id":7,"name":"Brussels","location":{"latitude":50.8503396,"longitude":4.3517103}},"distance":1419},{"sourceCity":{"id":4,"name":"Barcelona","location":{"latitude":41.3850639,"longitude":2.1734035}},"destinationCity":{"id":8,"name":"Calais","location":{"latitude":50.95129000000001,"longitude":1.858686}},"distance":1399},{"sourceCity":{"id":4,"name":"Barcelona","location":{"latitude":41.3850639,"longitude":2.1734035}},"destinationCity":{"id":9,"name":"Cologne","location":{"latitude":50.937531,"longitude":6.9602786}},"distance":1539},{"sourceCity":{"id":4,"name":"Barcelona","location":{"latitude":41.3850639,"longitude":2.1734035}},"destinationCity":{"id":10,"name":"Copenhagen","location":{"latitude":55.6760968,"longitude":12.5683371}},"distance":2230},{"sourceCity":{"id":4,"name":"Barcelona","location":{"latitude":41.3850639,"longitude":2.1734035}},"destinationCity":{"id":11,"name":"Edinburgh","location":{"latitude":55.953252,"longitude":-3.188267}},"distance":2181},{"sourceCity":{"id":4,"name":"Barcelona","location":{"latitude":41.3850639,"longitude":2.1734035}},"destinationCity":{"id":12,"name":"Frankfurt","location":{"latitude":50.1109221,"longitude":8.6821267}},"distance":1284},{"sourceCity":{"id":4,"name":"Barcelona","location":{"latitude":41.3850639,"longitude":2.1734035}},"destinationCity":{"id":13,"name":"Geneva","location":{"latitude":46.1983922,"longitude":6.142296099999999}},"distance":758},{"sourceCity":{"id":4,"name":"Barcelona","location":{"latitude":41.3850639,"longitude":2.1734035}},"destinationCity":{"id":14,"name":"Genoa","location":{"latitude":44.4056499,"longitude":8.946256}},"distance":946},{"sourceCity":{"id":4,"name":"Barcelona","location":{"latitude":41.3850639,"longitude":2.1734035}},"destinationCity":{"id":15,"name":"Hamburg","location":{"latitude":53.5510846,"longitude":9.9936818}},"distance":1856},{"sourceCity":{"id":4,"name":"Barcelona","location":{"latitude":41.3850639,"longitude":2.1734035}},"destinationCity":{"id":16,"name":"Le Havre","location":{"latitude":49.49437,"longitude":0.107929}},"distance":1336},{"sourceCity":{"id":4,"name":"Barcelona","location":{"latitude":41.3850639,"longitude":2.1734035}},"destinationCity":{"id":17,"name":"Lisbon","location":{"latitude":38.7252993,"longitude":-9.150036400000001}},"distance":1266},{"sourceCity":{"id":4,"name":"Barcelona","location":{"latitude":41.3850639,"longitude":2.1734035}},"destinationCity":{"id":18,"name":"London","location":{"latitude":51.51121389999999,"longitude":-0.1198244}},"distance":1512},{"sourceCity":{"id":4,"name":"Barcelona","location":{"latitude":41.3850639,"longitude":2.1734035}},"destinationCity":{"id":19,"name":"Luxembourg","location":{"latitude":49.815273,"longitude":6.129582999999999}},"distance":1137},{"sourceCity":{"id":4,"name":"Barcelona","location":{"latitude":41.3850639,"longitude":2.1734035}},"destinationCity":{"id":20,"name":"Lyon","location":{"latitude":45.764043,"longitude":4.835659}},"distance":644},{"sourceCity":{"id":4,"name":"Barcelona","location":{"latitude":41.3850639,"longitude":2.1734035}},"destinationCity":{"id":21,"name":"Madrid","location":{"latitude":40.4167754,"longitude":-3.7037902}},"distance":628},{"sourceCity":{"id":4,"name":"Barcelona","location":{"latitude":41.3850639,"longitude":2.1734035}},"destinationCity":{"id":22,"name":"Marseille","location":{"latitude":43.296482,"longitude":5.36978}},"distance":515},{"sourceCity":{"id":4,"name":"Barcelona","location":{"latitude":41.3850639,"longitude":2.1734035}},"destinationCity":{"id":23,"name":"Milan","location":{"latitude":45.4654542,"longitude":9.186516}},"distance":1102},{"sourceCity":{"id":4,"name":"Barcelona","location":{"latitude":41.3850639,"longitude":2.1734035}},"destinationCity":{"id":24,"name":"Munich","location":{"latitude":48.1351253,"longitude":11.5819806}},"distance":1349},{"sourceCity":{"id":4,"name":"Barcelona","location":{"latitude":41.3850639,"longitude":2.1734035}},"destinationCity":{"id":25,"name":"Naples","location":{"latitude":26.1420358,"longitude":-81.7948103}},"distance":1704},{"sourceCity":{"id":4,"name":"Barcelona","location":{"latitude":41.3850639,"longitude":2.1734035}},"destinationCity":{"id":26,"name":"Nice","location":{"latitude":43.696036,"longitude":7.265592}},"distance":685},{"sourceCity":{"id":4,"name":"Barcelona","location":{"latitude":41.3850639,"longitude":2.1734035}},"destinationCity":{"id":27,"name":"Paris","location":{"latitude":48.856614,"longitude":2.3522219}},"distance":1125},{"sourceCity":{"id":4,"name":"Barcelona","location":{"latitude":41.3850639,"longitude":2.1734035}},"destinationCity":{"id":28,"name":"Prague","location":{"latitude":50.0755381,"longitude":14.4378005}},"distance":1679},{"sourceCity":{"id":4,"name":"Barcelona","location":{"latitude":41.3850639,"longitude":2.1734035}},"destinationCity":{"id":29,"name":"Rome","location":{"latitude":41.8929163,"longitude":12.4825199}},"distance":1471},{"sourceCity":{"id":4,"name":"Barcelona","location":{"latitude":41.3850639,"longitude":2.1734035}},"destinationCity":{"id":30,"name":"Rotterdam","location":{"latitude":51.92421599999999,"longitude":4.481776}},"distance":1565},{"sourceCity":{"id":4,"name":"Barcelona","location":{"latitude":41.3850639,"longitude":2.1734035}},"destinationCity":{"id":31,"name":"Strasbourg","location":{"latitude":48.583148,"longitude":7.747882}},"distance":1072},{"sourceCity":{"id":4,"name":"Barcelona","location":{"latitude":41.3850639,"longitude":2.1734035}},"destinationCity":{"id":32,"name":"Stuttgart","location":{"latitude":48.7754181,"longitude":9.181758799999999}},"distance":1263},{"sourceCity":{"id":4,"name":"Barcelona","location":{"latitude":41.3850639,"longitude":2.1734035}},"destinationCity":{"id":33,"name":"The Hague","location":{"latitude":52.0704978,"longitude":4.3006999}},"distance":1589},{"sourceCity":{"id":4,"name":"Barcelona","location":{"latitude":41.3850639,"longitude":2.1734035}},"destinationCity":{"id":34,"name":"Turin","location":{"latitude":45.07098200000001,"longitude":7.685676}},"distance":892},{"sourceCity":{"id":4,"name":"Barcelona","location":{"latitude":41.3850639,"longitude":2.1734035}},"destinationCity":{"id":35,"name":"Venice","location":{"latitude":45.4408474,"longitude":12.3155151}},"distance":1327},{"sourceCity":{"id":4,"name":"Barcelona","location":{"latitude":41.3850639,"longitude":2.1734035}},"destinationCity":{"id":36,"name":"Vienna","location":{"latitude":48.2081743,"longitude":16.3738189}},"distance":1989},{"sourceCity":{"id":4,"name":"Barcelona","location":{"latitude":41.3850639,"longitude":2.1734035}},"destinationCity":{"id":37,"name":"Zurich","location":{"latitude":47.3686498,"longitude":8.539182499999999}},"distance":1036},{"sourceCity":{"id":6,"name":"Bern","location":{"latitude":46.9479222,"longitude":7.444608499999999}},"destinationCity":{"id":7,"name":"Brussels","location":{"latitude":50.8503396,"longitude":4.3517103}},"distance":655},{"sourceCity":{"id":6,"name":"Bern","location":{"latitude":46.9479222,"longitude":7.444608499999999}},"destinationCity":{"id":8,"name":"Calais","location":{"latitude":50.95129000000001,"longitude":1.858686}},"distance":854},{"sourceCity":{"id":6,"name":"Bern","location":{"latitude":46.9479222,"longitude":7.444608499999999}},"destinationCity":{"id":9,"name":"Cologne","location":{"latitude":50.937531,"longitude":6.9602786}},"distance":583},{"sourceCity":{"id":6,"name":"Bern","location":{"latitude":46.9479222,"longitude":7.444608499999999}},"destinationCity":{"id":10,"name":"Copenhagen","location":{"latitude":55.6760968,"longitude":12.5683371}},"distance":1392},{"sourceCity":{"id":6,"name":"Bern","location":{"latitude":46.9479222,"longitude":7.444608499999999}},"destinationCity":{"id":11,"name":"Edinburgh","location":{"latitude":55.953252,"longitude":-3.188267}},"distance":1643},{"sourceCity":{"id":6,"name":"Bern","location":{"latitude":46.9479222,"longitude":7.444608499999999}},"destinationCity":{"id":12,"name":"Frankfurt","location":{"latitude":50.1109221,"longitude":8.6821267}},"distance":424},{"sourceCity":{"id":6,"name":"Bern","location":{"latitude":46.9479222,"longitude":7.444608499999999}},"destinationCity":{"id":13,"name":"Geneva","location":{"latitude":46.1983922,"longitude":6.142296099999999}},"distance":155},{"sourceCity":{"id":6,"name":"Bern","location":{"latitude":46.9479222,"longitude":7.444608499999999}},"destinationCity":{"id":14,"name":"Genoa","location":{"latitude":44.4056499,"longitude":8.946256}},"distance":448},{"sourceCity":{"id":6,"name":"Bern","location":{"latitude":46.9479222,"longitude":7.444608499999999}},"destinationCity":{"id":15,"name":"Hamburg","location":{"latitude":53.5510846,"longitude":9.9936818}},"distance":906},{"sourceCity":{"id":6,"name":"Bern","location":{"latitude":46.9479222,"longitude":7.444608499999999}},"destinationCity":{"id":16,"name":"Le Havre","location":{"latitude":49.49437,"longitude":0.107929}},"distance":767},{"sourceCity":{"id":6,"name":"Bern","location":{"latitude":46.9479222,"longitude":7.444608499999999}},"destinationCity":{"id":17,"name":"Lisbon","location":{"latitude":38.7252993,"longitude":-9.150036400000001}},"distance":2179},{"sourceCity":{"id":6,"name":"Bern","location":{"latitude":46.9479222,"longitude":7.444608499999999}},"destinationCity":{"id":18,"name":"London","location":{"latitude":51.51121389999999,"longitude":-0.1198244}},"distance":975},{"sourceCity":{"id":6,"name":"Bern","location":{"latitude":46.9479222,"longitude":7.444608499999999}},"destinationCity":{"id":19,"name":"Luxembourg","location":{"latitude":49.815273,"longitude":6.129582999999999}},"distance":429},{"sourceCity":{"id":6,"name":"Bern","location":{"latitude":46.9479222,"longitude":7.444608499999999}},"destinationCity":{"id":20,"name":"Lyon","location":{"latitude":45.764043,"longitude":4.835659}},"distance":317},{"sourceCity":{"id":6,"name":"Bern","location":{"latitude":46.9479222,"longitude":7.444608499999999}},"destinationCity":{"id":21,"name":"Madrid","location":{"latitude":40.4167754,"longitude":-3.7037902}},"distance":1541},{"sourceCity":{"id":6,"name":"Bern","location":{"latitude":46.9479222,"longitude":7.444608499999999}},"destinationCity":{"id":22,"name":"Marseille","location":{"latitude":43.296482,"longitude":5.36978}},"distance":598},{"sourceCity":{"id":6,"name":"Bern","location":{"latitude":46.9479222,"longitude":7.444608499999999}},"destinationCity":{"id":23,"name":"Milan","location":{"latitude":45.4654542,"longitude":9.186516}},"distance":347},{"sourceCity":{"id":6,"name":"Bern","location":{"latitude":46.9479222,"longitude":7.444608499999999}},"destinationCity":{"id":24,"name":"Munich","location":{"latitude":48.1351253,"longitude":11.5819806}},"distance":436},{"sourceCity":{"id":6,"name":"Bern","location":{"latitude":46.9479222,"longitude":7.444608499999999}},"destinationCity":{"id":25,"name":"Naples","location":{"latitude":26.1420358,"longitude":-81.7948103}},"distance":1261},{"sourceCity":{"id":6,"name":"Bern","location":{"latitude":46.9479222,"longitude":7.444608499999999}},"destinationCity":{"id":26,"name":"Nice","location":{"latitude":43.696036,"longitude":7.265592}},"distance":638},{"sourceCity":{"id":6,"name":"Bern","location":{"latitude":46.9479222,"longitude":7.444608499999999}},"destinationCity":{"id":27,"name":"Paris","location":{"latitude":48.856614,"longitude":2.3522219}},"distance":556},{"sourceCity":{"id":6,"name":"Bern","location":{"latitude":46.9479222,"longitude":7.444608499999999}},"destinationCity":{"id":28,"name":"Prague","location":{"latitude":50.0755381,"longitude":14.4378005}},"distance":766},{"sourceCity":{"id":6,"name":"Bern","location":{"latitude":46.9479222,"longitude":7.444608499999999}},"destinationCity":{"id":29,"name":"Rome","location":{"latitude":41.8929163,"longitude":12.4825199}},"distance":897},{"sourceCity":{"id":6,"name":"Bern","location":{"latitude":46.9479222,"longitude":7.444608499999999}},"destinationCity":{"id":30,"name":"Rotterdam","location":{"latitude":51.92421599999999,"longitude":4.481776}},"distance":802},{"sourceCity":{"id":6,"name":"Bern","location":{"latitude":46.9479222,"longitude":7.444608499999999}},"destinationCity":{"id":31,"name":"Strasbourg","location":{"latitude":48.583148,"longitude":7.747882}},"distance":232},{"sourceCity":{"id":6,"name":"Bern","location":{"latitude":46.9479222,"longitude":7.444608499999999}},"destinationCity":{"id":32,"name":"Stuttgart","location":{"latitude":48.7754181,"longitude":9.181758799999999}},"distance":350},{"sourceCity":{"id":6,"name":"Bern","location":{"latitude":46.9479222,"longitude":7.444608499999999}},"destinationCity":{"id":33,"name":"The Hague","location":{"latitude":52.0704978,"longitude":4.3006999}},"distance":825},{"sourceCity":{"id":6,"name":"Bern","location":{"latitude":46.9479222,"longitude":7.444608499999999}},"destinationCity":{"id":34,"name":"Turin","location":{"latitude":45.07098200000001,"longitude":7.685676}},"distance":312},{"sourceCity":{"id":6,"name":"Bern","location":{"latitude":46.9479222,"longitude":7.444608499999999}},"destinationCity":{"id":35,"name":"Venice","location":{"latitude":45.4408474,"longitude":12.3155151}},"distance":642},{"sourceCity":{"id":6,"name":"Bern","location":{"latitude":46.9479222,"longitude":7.444608499999999}},"destinationCity":{"id":36,"name":"Vienna","location":{"latitude":48.2081743,"longitude":16.3738189}},"distance":907},{"sourceCity":{"id":6,"name":"Bern","location":{"latitude":46.9479222,"longitude":7.444608499999999}},"destinationCity":{"id":37,"name":"Zurich","location":{"latitude":47.3686498,"longitude":8.539182499999999}},"distance":123},{"sourceCity":{"id":8,"name":"Calais","location":{"latitude":50.95129000000001,"longitude":1.858686}},"destinationCity":{"id":9,"name":"Cologne","location":{"latitude":50.937531,"longitude":6.9602786}},"distance":431},{"sourceCity":{"id":8,"name":"Calais","location":{"latitude":50.95129000000001,"longitude":1.858686}},"destinationCity":{"id":10,"name":"Copenhagen","location":{"latitude":55.6760968,"longitude":12.5683371}},"distance":730},{"sourceCity":{"id":8,"name":"Calais","location":{"latitude":50.95129000000001,"longitude":1.858686}},"destinationCity":{"id":11,"name":"Edinburgh","location":{"latitude":55.953252,"longitude":-3.188267}},"distance":792},{"sourceCity":{"id":8,"name":"Calais","location":{"latitude":50.95129000000001,"longitude":1.858686}},"destinationCity":{"id":12,"name":"Frankfurt","location":{"latitude":50.1109221,"longitude":8.6821267}},"distance":621},{"sourceCity":{"id":8,"name":"Calais","location":{"latitude":50.95129000000001,"longitude":1.858686}},"destinationCity":{"id":13,"name":"Geneva","location":{"latitude":46.1983922,"longitude":6.142296099999999}},"distance":820},{"sourceCity":{"id":8,"name":"Calais","location":{"latitude":50.95129000000001,"longitude":1.858686}},"destinationCity":{"id":14,"name":"Genoa","location":{"latitude":44.4056499,"longitude":8.946256}},"distance":1213},{"sourceCity":{"id":8,"name":"Calais","location":{"latitude":50.95129000000001,"longitude":1.858686}},"destinationCity":{"id":15,"name":"Hamburg","location":{"latitude":53.5510846,"longitude":9.9936818}},"distance":798},{"sourceCity":{"id":8,"name":"Calais","location":{"latitude":50.95129000000001,"longitude":1.858686}},"destinationCity":{"id":16,"name":"Le Havre","location":{"latitude":49.49437,"longitude":0.107929}},"distance":284},{"sourceCity":{"id":8,"name":"Calais","location":{"latitude":50.95129000000001,"longitude":1.858686}},"destinationCity":{"id":17,"name":"Lisbon","location":{"latitude":38.7252993,"longitude":-9.150036400000001}},"distance":2060},{"sourceCity":{"id":8,"name":"Calais","location":{"latitude":50.95129000000001,"longitude":1.858686}},"destinationCity":{"id":18,"name":"London","location":{"latitude":51.51121389999999,"longitude":-0.1198244}},"distance":123},{"sourceCity":{"id":8,"name":"Calais","location":{"latitude":50.95129000000001,"longitude":1.858686}},"destinationCity":{"id":19,"name":"Luxembourg","location":{"latitude":49.815273,"longitude":6.129582999999999}},"distance":414},{"sourceCity":{"id":8,"name":"Calais","location":{"latitude":50.95129000000001,"longitude":1.858686}},"destinationCity":{"id":20,"name":"Lyon","location":{"latitude":45.764043,"longitude":4.835659}},"distance":755},{"sourceCity":{"id":8,"name":"Calais","location":{"latitude":50.95129000000001,"longitude":1.858686}},"destinationCity":{"id":21,"name":"Madrid","location":{"latitude":40.4167754,"longitude":-3.7037902}},"distance":1542},{"sourceCity":{"id":8,"name":"Calais","location":{"latitude":50.95129000000001,"longitude":1.858686}},"destinationCity":{"id":22,"name":"Marseille","location":{"latitude":43.296482,"longitude":5.36978}},"distance":1083},{"sourceCity":{"id":8,"name":"Calais","location":{"latitude":50.95129000000001,"longitude":1.858686}},"destinationCity":{"id":23,"name":"Milan","location":{"latitude":45.4654542,"longitude":9.186516}},"distance":1057},{"sourceCity":{"id":8,"name":"Calais","location":{"latitude":50.95129000000001,"longitude":1.858686}},"destinationCity":{"id":24,"name":"Munich","location":{"latitude":48.1351253,"longitude":11.5819806}},"distance":998},{"sourceCity":{"id":8,"name":"Calais","location":{"latitude":50.95129000000001,"longitude":1.858686}},"destinationCity":{"id":25,"name":"Naples","location":{"latitude":26.1420358,"longitude":-81.7948103}},"distance":1971},{"sourceCity":{"id":8,"name":"Calais","location":{"latitude":50.95129000000001,"longitude":1.858686}},"destinationCity":{"id":26,"name":"Nice","location":{"latitude":43.696036,"longitude":7.265592}},"distance":1195},{"sourceCity":{"id":8,"name":"Calais","location":{"latitude":50.95129000000001,"longitude":1.858686}},"destinationCity":{"id":27,"name":"Paris","location":{"latitude":48.856614,"longitude":2.3522219}},"distance":274},{"sourceCity":{"id":8,"name":"Calais","location":{"latitude":50.95129000000001,"longitude":1.858686}},"destinationCity":{"id":28,"name":"Prague","location":{"latitude":50.0755381,"longitude":14.4378005}},"distance":1082},{"sourceCity":{"id":8,"name":"Calais","location":{"latitude":50.95129000000001,"longitude":1.858686}},"destinationCity":{"id":29,"name":"Rome","location":{"latitude":41.8929163,"longitude":12.4825199}},"distance":1738},{"sourceCity":{"id":8,"name":"Calais","location":{"latitude":50.95129000000001,"longitude":1.858686}},"destinationCity":{"id":30,"name":"Rotterdam","location":{"latitude":51.92421599999999,"longitude":4.481776}},"distance":311},{"sourceCity":{"id":8,"name":"Calais","location":{"latitude":50.95129000000001,"longitude":1.858686}},"destinationCity":{"id":31,"name":"Strasbourg","location":{"latitude":48.583148,"longitude":7.747882}},"distance":627},{"sourceCity":{"id":8,"name":"Calais","location":{"latitude":50.95129000000001,"longitude":1.858686}},"destinationCity":{"id":32,"name":"Stuttgart","location":{"latitude":48.7754181,"longitude":9.181758799999999}},"distance":792},{"sourceCity":{"id":8,"name":"Calais","location":{"latitude":50.95129000000001,"longitude":1.858686}},"destinationCity":{"id":33,"name":"The Hague","location":{"latitude":52.0704978,"longitude":4.3006999}},"distance":352},{"sourceCity":{"id":8,"name":"Calais","location":{"latitude":50.95129000000001,"longitude":1.858686}},"destinationCity":{"id":34,"name":"Turin","location":{"latitude":45.07098200000001,"longitude":7.685676}},"distance":1110},{"sourceCity":{"id":8,"name":"Calais","location":{"latitude":50.95129000000001,"longitude":1.858686}},"destinationCity":{"id":35,"name":"Venice","location":{"latitude":45.4408474,"longitude":12.3155151}},"distance":1352},{"sourceCity":{"id":8,"name":"Calais","location":{"latitude":50.95129000000001,"longitude":1.858686}},"destinationCity":{"id":36,"name":"Vienna","location":{"latitude":48.2081743,"longitude":16.3738189}},"distance":1346},{"sourceCity":{"id":8,"name":"Calais","location":{"latitude":50.95129000000001,"longitude":1.858686}},"destinationCity":{"id":37,"name":"Zurich","location":{"latitude":47.3686498,"longitude":8.539182499999999}},"distance":764},{"sourceCity":{"id":10,"name":"Copenhagen","location":{"latitude":55.6760968,"longitude":12.5683371}},"destinationCity":{"id":11,"name":"Edinburgh","location":{"latitude":55.953252,"longitude":-3.188267}},"distance":1864},{"sourceCity":{"id":10,"name":"Copenhagen","location":{"latitude":55.6760968,"longitude":12.5683371}},"destinationCity":{"id":12,"name":"Frankfurt","location":{"latitude":50.1109221,"longitude":8.6821267}},"distance":799},{"sourceCity":{"id":10,"name":"Copenhagen","location":{"latitude":55.6760968,"longitude":12.5683371}},"destinationCity":{"id":13,"name":"Geneva","location":{"latitude":46.1983922,"longitude":6.142296099999999}},"distance":1531},{"sourceCity":{"id":10,"name":"Copenhagen","location":{"latitude":55.6760968,"longitude":12.5683371}},"destinationCity":{"id":14,"name":"Genoa","location":{"latitude":44.4056499,"longitude":8.946256}},"distance":1552},{"sourceCity":{"id":10,"name":"Copenhagen","location":{"latitude":55.6760968,"longitude":12.5683371}},"destinationCity":{"id":15,"name":"Hamburg","location":{"latitude":53.5510846,"longitude":9.9936818}},"distance":321},{"sourceCity":{"id":10,"name":"Copenhagen","location":{"latitude":55.6760968,"longitude":12.5683371}},"destinationCity":{"id":16,"name":"Le Havre","location":{"latitude":49.49437,"longitude":0.107929}},"distance":1531},{"sourceCity":{"id":10,"name":"Copenhagen","location":{"latitude":55.6760968,"longitude":12.5683371}},"destinationCity":{"id":17,"name":"Lisbon","location":{"latitude":38.7252993,"longitude":-9.150036400000001}},"distance":3115},{"sourceCity":{"id":10,"name":"Copenhagen","location":{"latitude":55.6760968,"longitude":12.5683371}},"destinationCity":{"id":18,"name":"London","location":{"latitude":51.51121389999999,"longitude":-0.1198244}},"distance":1196},{"sourceCity":{"id":10,"name":"Copenhagen","location":{"latitude":55.6760968,"longitude":12.5683371}},"destinationCity":{"id":19,"name":"Luxembourg","location":{"latitude":49.815273,"longitude":6.129582999999999}},"distance":1106},{"sourceCity":{"id":10,"name":"Copenhagen","location":{"latitude":55.6760968,"longitude":12.5683371}},"destinationCity":{"id":20,"name":"Lyon","location":{"latitude":45.764043,"longitude":4.835659}},"distance":1586},{"sourceCity":{"id":10,"name":"Copenhagen","location":{"latitude":55.6760968,"longitude":12.5683371}},"destinationCity":{"id":21,"name":"Madrid","location":{"latitude":40.4167754,"longitude":-3.7037902}},"distance":2597},{"sourceCity":{"id":10,"name":"Copenhagen","location":{"latitude":55.6760968,"longitude":12.5683371}},"destinationCity":{"id":22,"name":"Marseille","location":{"latitude":43.296482,"longitude":5.36978}},"distance":1914},{"sourceCity":{"id":10,"name":"Copenhagen","location":{"latitude":55.6760968,"longitude":12.5683371}},"destinationCity":{"id":23,"name":"Milan","location":{"latitude":45.4654542,"longitude":9.186516}},"distance":1671},{"sourceCity":{"id":10,"name":"Copenhagen","location":{"latitude":55.6760968,"longitude":12.5683371}},"destinationCity":{"id":24,"name":"Munich","location":{"latitude":48.1351253,"longitude":11.5819806}},"distance":1204},{"sourceCity":{"id":10,"name":"Copenhagen","location":{"latitude":55.6760968,"longitude":12.5683371}},"destinationCity":{"id":25,"name":"Naples","location":{"latitude":26.1420358,"longitude":-81.7948103}},"distance":2585},{"sourceCity":{"id":10,"name":"Copenhagen","location":{"latitude":55.6760968,"longitude":12.5683371}},"destinationCity":{"id":26,"name":"Nice","location":{"latitude":43.696036,"longitude":7.265592}},"distance":2014},{"sourceCity":{"id":10,"name":"Copenhagen","location":{"latitude":55.6760968,"longitude":12.5683371}},"destinationCity":{"id":27,"name":"Paris","location":{"latitude":48.856614,"longitude":2.3522219}},"distance":1329},{"sourceCity":{"id":10,"name":"Copenhagen","location":{"latitude":55.6760968,"longitude":12.5683371}},"destinationCity":{"id":28,"name":"Prague","location":{"latitude":50.0755381,"longitude":14.4378005}},"distance":1033},{"sourceCity":{"id":10,"name":"Copenhagen","location":{"latitude":55.6760968,"longitude":12.5683371}},"destinationCity":{"id":29,"name":"Rome","location":{"latitude":41.8929163,"longitude":12.4825199}},"distance":2352},{"sourceCity":{"id":10,"name":"Copenhagen","location":{"latitude":55.6760968,"longitude":12.5683371}},"destinationCity":{"id":30,"name":"Rotterdam","location":{"latitude":51.92421599999999,"longitude":4.481776}},"distance":813},{"sourceCity":{"id":10,"name":"Copenhagen","location":{"latitude":55.6760968,"longitude":12.5683371}},"destinationCity":{"id":31,"name":"Strasbourg","location":{"latitude":48.583148,"longitude":7.747882}},"distance":1158},{"sourceCity":{"id":10,"name":"Copenhagen","location":{"latitude":55.6760968,"longitude":12.5683371}},"destinationCity":{"id":32,"name":"Stuttgart","location":{"latitude":48.7754181,"longitude":9.181758799999999}},"distance":1178},{"sourceCity":{"id":10,"name":"Copenhagen","location":{"latitude":55.6760968,"longitude":12.5683371}},"destinationCity":{"id":33,"name":"The Hague","location":{"latitude":52.0704978,"longitude":4.3006999}},"distance":960},{"sourceCity":{"id":10,"name":"Copenhagen","location":{"latitude":55.6760968,"longitude":12.5683371}},"destinationCity":{"id":34,"name":"Turin","location":{"latitude":45.07098200000001,"longitude":7.685676}},"distance":1527},{"sourceCity":{"id":10,"name":"Copenhagen","location":{"latitude":55.6760968,"longitude":12.5683371}},"destinationCity":{"id":35,"name":"Venice","location":{"latitude":45.4408474,"longitude":12.3155151}},"distance":1708},{"sourceCity":{"id":10,"name":"Copenhagen","location":{"latitude":55.6760968,"longitude":12.5683371}},"destinationCity":{"id":36,"name":"Vienna","location":{"latitude":48.2081743,"longitude":16.3738189}},"distance":1345},{"sourceCity":{"id":10,"name":"Copenhagen","location":{"latitude":55.6760968,"longitude":12.5683371}},"destinationCity":{"id":37,"name":"Zurich","location":{"latitude":47.3686498,"longitude":8.539182499999999}},"distance":1378},{"sourceCity":{"id":12,"name":"Frankfurt","location":{"latitude":50.1109221,"longitude":8.6821267}},"destinationCity":{"id":13,"name":"Geneva","location":{"latitude":46.1983922,"longitude":6.142296099999999}},"distance":585},{"sourceCity":{"id":12,"name":"Frankfurt","location":{"latitude":50.1109221,"longitude":8.6821267}},"destinationCity":{"id":14,"name":"Genoa","location":{"latitude":44.4056499,"longitude":8.946256}},"distance":881},{"sourceCity":{"id":12,"name":"Frankfurt","location":{"latitude":50.1109221,"longitude":8.6821267}},"destinationCity":{"id":15,"name":"Hamburg","location":{"latitude":53.5510846,"longitude":9.9936818}},"distance":497},{"sourceCity":{"id":12,"name":"Frankfurt","location":{"latitude":50.1109221,"longitude":8.6821267}},"destinationCity":{"id":16,"name":"Le Havre","location":{"latitude":49.49437,"longitude":0.107929}},"distance":758},{"sourceCity":{"id":12,"name":"Frankfurt","location":{"latitude":50.1109221,"longitude":8.6821267}},"destinationCity":{"id":17,"name":"Lisbon","location":{"latitude":38.7252993,"longitude":-9.150036400000001}},"distance":2544},{"sourceCity":{"id":12,"name":"Frankfurt","location":{"latitude":50.1109221,"longitude":8.6821267}},"destinationCity":{"id":18,"name":"London","location":{"latitude":51.51121389999999,"longitude":-0.1198244}},"distance":727},{"sourceCity":{"id":12,"name":"Frankfurt","location":{"latitude":50.1109221,"longitude":8.6821267}},"destinationCity":{"id":19,"name":"Luxembourg","location":{"latitude":49.815273,"longitude":6.129582999999999}},"distance":249},{"sourceCity":{"id":12,"name":"Frankfurt","location":{"latitude":50.1109221,"longitude":8.6821267}},"destinationCity":{"id":20,"name":"Lyon","location":{"latitude":45.764043,"longitude":4.835659}},"distance":640},{"sourceCity":{"id":12,"name":"Frankfurt","location":{"latitude":50.1109221,"longitude":8.6821267}},"destinationCity":{"id":21,"name":"Madrid","location":{"latitude":40.4167754,"longitude":-3.7037902}},"distance":1906},{"sourceCity":{"id":12,"name":"Frankfurt","location":{"latitude":50.1109221,"longitude":8.6821267}},"destinationCity":{"id":22,"name":"Marseille","location":{"latitude":43.296482,"longitude":5.36978}},"distance":1004},{"sourceCity":{"id":12,"name":"Frankfurt","location":{"latitude":50.1109221,"longitude":8.6821267}},"destinationCity":{"id":23,"name":"Milan","location":{"latitude":45.4654542,"longitude":9.186516}},"distance":725},{"sourceCity":{"id":12,"name":"Frankfurt","location":{"latitude":50.1109221,"longitude":8.6821267}},"destinationCity":{"id":24,"name":"Munich","location":{"latitude":48.1351253,"longitude":11.5819806}},"distance":383},{"sourceCity":{"id":12,"name":"Frankfurt","location":{"latitude":50.1109221,"longitude":8.6821267}},"destinationCity":{"id":25,"name":"Naples","location":{"latitude":26.1420358,"longitude":-81.7948103}},"distance":1639},{"sourceCity":{"id":12,"name":"Frankfurt","location":{"latitude":50.1109221,"longitude":8.6821267}},"destinationCity":{"id":26,"name":"Nice","location":{"latitude":43.696036,"longitude":7.265592}},"distance":1085},{"sourceCity":{"id":12,"name":"Frankfurt","location":{"latitude":50.1109221,"longitude":8.6821267}},"destinationCity":{"id":27,"name":"Paris","location":{"latitude":48.856614,"longitude":2.3522219}},"distance":592},{"sourceCity":{"id":12,"name":"Frankfurt","location":{"latitude":50.1109221,"longitude":8.6821267}},"destinationCity":{"id":28,"name":"Prague","location":{"latitude":50.0755381,"longitude":14.4378005}},"distance":552},{"sourceCity":{"id":12,"name":"Frankfurt","location":{"latitude":50.1109221,"longitude":8.6821267}},"destinationCity":{"id":29,"name":"Rome","location":{"latitude":41.8929163,"longitude":12.4825199}},"distance":1406},{"sourceCity":{"id":12,"name":"Frankfurt","location":{"latitude":50.1109221,"longitude":8.6821267}},"destinationCity":{"id":30,"name":"Rotterdam","location":{"latitude":51.92421599999999,"longitude":4.481776}},"distance":444},{"sourceCity":{"id":12,"name":"Frankfurt","location":{"latitude":50.1109221,"longitude":8.6821267}},"destinationCity":{"id":31,"name":"Strasbourg","location":{"latitude":48.583148,"longitude":7.747882}},"distance":212},{"sourceCity":{"id":12,"name":"Frankfurt","location":{"latitude":50.1109221,"longitude":8.6821267}},"destinationCity":{"id":32,"name":"Stuttgart","location":{"latitude":48.7754181,"longitude":9.181758799999999}},"distance":205},{"sourceCity":{"id":12,"name":"Frankfurt","location":{"latitude":50.1109221,"longitude":8.6821267}},"destinationCity":{"id":33,"name":"The Hague","location":{"latitude":52.0704978,"longitude":4.3006999}},"distance":463},{"sourceCity":{"id":12,"name":"Frankfurt","location":{"latitude":50.1109221,"longitude":8.6821267}},"destinationCity":{"id":34,"name":"Turin","location":{"latitude":45.07098200000001,"longitude":7.685676}},"distance":835},{"sourceCity":{"id":12,"name":"Frankfurt","location":{"latitude":50.1109221,"longitude":8.6821267}},"destinationCity":{"id":35,"name":"Venice","location":{"latitude":45.4408474,"longitude":12.3155151}},"distance":1020},{"sourceCity":{"id":12,"name":"Frankfurt","location":{"latitude":50.1109221,"longitude":8.6821267}},"destinationCity":{"id":36,"name":"Vienna","location":{"latitude":48.2081743,"longitude":16.3738189}},"distance":725},{"sourceCity":{"id":12,"name":"Frankfurt","location":{"latitude":50.1109221,"longitude":8.6821267}},"destinationCity":{"id":37,"name":"Zurich","location":{"latitude":47.3686498,"longitude":8.539182499999999}},"distance":432},{"sourceCity":{"id":14,"name":"Genoa","location":{"latitude":44.4056499,"longitude":8.946256}},"destinationCity":{"id":15,"name":"Hamburg","location":{"latitude":53.5510846,"longitude":9.9936818}},"distance":1378},{"sourceCity":{"id":14,"name":"Genoa","location":{"latitude":44.4056499,"longitude":8.946256}},"destinationCity":{"id":16,"name":"Le Havre","location":{"latitude":49.49437,"longitude":0.107929}},"distance":1233},{"sourceCity":{"id":14,"name":"Genoa","location":{"latitude":44.4056499,"longitude":8.946256}},"destinationCity":{"id":17,"name":"Lisbon","location":{"latitude":38.7252993,"longitude":-9.150036400000001}},"distance":2212},{"sourceCity":{"id":14,"name":"Genoa","location":{"latitude":44.4056499,"longitude":8.946256}},"destinationCity":{"id":18,"name":"London","location":{"latitude":51.51121389999999,"longitude":-0.1198244}},"distance":1253},{"sourceCity":{"id":14,"name":"Genoa","location":{"latitude":44.4056499,"longitude":8.946256}},"destinationCity":{"id":19,"name":"Luxembourg","location":{"latitude":49.815273,"longitude":6.129582999999999}},"distance":887},{"sourceCity":{"id":14,"name":"Genoa","location":{"latitude":44.4056499,"longitude":8.946256}},"destinationCity":{"id":20,"name":"Lyon","location":{"latitude":45.764043,"longitude":4.835659}},"distance":541},{"sourceCity":{"id":14,"name":"Genoa","location":{"latitude":44.4056499,"longitude":8.946256}},"destinationCity":{"id":21,"name":"Madrid","location":{"latitude":40.4167754,"longitude":-3.7037902}},"distance":1574},{"sourceCity":{"id":14,"name":"Genoa","location":{"latitude":44.4056499,"longitude":8.946256}},"destinationCity":{"id":22,"name":"Marseille","location":{"latitude":43.296482,"longitude":5.36978}},"distance":431},{"sourceCity":{"id":14,"name":"Genoa","location":{"latitude":44.4056499,"longitude":8.946256}},"destinationCity":{"id":23,"name":"Milan","location":{"latitude":45.4654542,"longitude":9.186516}},"distance":156},{"sourceCity":{"id":14,"name":"Genoa","location":{"latitude":44.4056499,"longitude":8.946256}},"destinationCity":{"id":24,"name":"Munich","location":{"latitude":48.1351253,"longitude":11.5819806}},"distance":707},{"sourceCity":{"id":14,"name":"Genoa","location":{"latitude":44.4056499,"longitude":8.946256}},"destinationCity":{"id":25,"name":"Naples","location":{"latitude":26.1420358,"longitude":-81.7948103}},"distance":758},{"sourceCity":{"id":14,"name":"Genoa","location":{"latitude":44.4056499,"longitude":8.946256}},"destinationCity":{"id":26,"name":"Nice","location":{"latitude":43.696036,"longitude":7.265592}},"distance":204},{"sourceCity":{"id":14,"name":"Genoa","location":{"latitude":44.4056499,"longitude":8.946256}},"destinationCity":{"id":27,"name":"Paris","location":{"latitude":48.856614,"longitude":2.3522219}},"distance":1006},{"sourceCity":{"id":14,"name":"Genoa","location":{"latitude":44.4056499,"longitude":8.946256}},"destinationCity":{"id":28,"name":"Prague","location":{"latitude":50.0755381,"longitude":14.4378005}},"distance":1007},{"sourceCity":{"id":14,"name":"Genoa","location":{"latitude":44.4056499,"longitude":8.946256}},"destinationCity":{"id":29,"name":"Rome","location":{"latitude":41.8929163,"longitude":12.4825199}},"distance":525},{"sourceCity":{"id":14,"name":"Genoa","location":{"latitude":44.4056499,"longitude":8.946256}},"destinationCity":{"id":30,"name":"Rotterdam","location":{"latitude":51.92421599999999,"longitude":4.481776}},"distance":1236},{"sourceCity":{"id":14,"name":"Genoa","location":{"latitude":44.4056499,"longitude":8.946256}},"destinationCity":{"id":31,"name":"Strasbourg","location":{"latitude":48.583148,"longitude":7.747882}},"distance":667},{"sourceCity":{"id":14,"name":"Genoa","location":{"latitude":44.4056499,"longitude":8.946256}},"destinationCity":{"id":32,"name":"Stuttgart","location":{"latitude":48.7754181,"longitude":9.181758799999999}},"distance":688},{"sourceCity":{"id":14,"name":"Genoa","location":{"latitude":44.4056499,"longitude":8.946256}},"destinationCity":{"id":33,"name":"The Hague","location":{"latitude":52.0704978,"longitude":4.3006999}},"distance":510},{"sourceCity":{"id":14,"name":"Genoa","location":{"latitude":44.4056499,"longitude":8.946256}},"destinationCity":{"id":34,"name":"Turin","location":{"latitude":45.07098200000001,"longitude":7.685676}},"distance":186},{"sourceCity":{"id":14,"name":"Genoa","location":{"latitude":44.4056499,"longitude":8.946256}},"destinationCity":{"id":35,"name":"Venice","location":{"latitude":45.4408474,"longitude":12.3155151}},"distance":381},{"sourceCity":{"id":14,"name":"Genoa","location":{"latitude":44.4056499,"longitude":8.946256}},"destinationCity":{"id":36,"name":"Vienna","location":{"latitude":48.2081743,"longitude":16.3738189}},"distance":983},{"sourceCity":{"id":14,"name":"Genoa","location":{"latitude":44.4056499,"longitude":8.946256}},"destinationCity":{"id":37,"name":"Zurich","location":{"latitude":47.3686498,"longitude":8.539182499999999}},"distance":641},{"sourceCity":{"id":16,"name":"Le Havre","location":{"latitude":49.49437,"longitude":0.107929}},"destinationCity":{"id":17,"name":"Lisbon","location":{"latitude":38.7252993,"longitude":-9.150036400000001}},"distance":1894},{"sourceCity":{"id":16,"name":"Le Havre","location":{"latitude":49.49437,"longitude":0.107929}},"destinationCity":{"id":18,"name":"London","location":{"latitude":51.51121389999999,"longitude":-0.1198244}},"distance":406},{"sourceCity":{"id":16,"name":"Le Havre","location":{"latitude":49.49437,"longitude":0.107929}},"destinationCity":{"id":19,"name":"Luxembourg","location":{"latitude":49.815273,"longitude":6.129582999999999}},"distance":512},{"sourceCity":{"id":16,"name":"Le Havre","location":{"latitude":49.49437,"longitude":0.107929}},"destinationCity":{"id":20,"name":"Lyon","location":{"latitude":45.764043,"longitude":4.835659}},"distance":692},{"sourceCity":{"id":16,"name":"Le Havre","location":{"latitude":49.49437,"longitude":0.107929}},"destinationCity":{"id":21,"name":"Madrid","location":{"latitude":40.4167754,"longitude":-3.7037902}},"distance":1376},{"sourceCity":{"id":16,"name":"Le Havre","location":{"latitude":49.49437,"longitude":0.107929}},"destinationCity":{"id":22,"name":"Marseille","location":{"latitude":43.296482,"longitude":5.36978}},"distance":1020},{"sourceCity":{"id":16,"name":"Le Havre","location":{"latitude":49.49437,"longitude":0.107929}},"destinationCity":{"id":23,"name":"Milan","location":{"latitude":45.4654542,"longitude":9.186516}},"distance":1087},{"sourceCity":{"id":16,"name":"Le Havre","location":{"latitude":49.49437,"longitude":0.107929}},"destinationCity":{"id":24,"name":"Munich","location":{"latitude":48.1351253,"longitude":11.5819806}},"distance":1038},{"sourceCity":{"id":16,"name":"Le Havre","location":{"latitude":49.49437,"longitude":0.107929}},"destinationCity":{"id":25,"name":"Naples","location":{"latitude":26.1420358,"longitude":-81.7948103}},"distance":1991},{"sourceCity":{"id":16,"name":"Le Havre","location":{"latitude":49.49437,"longitude":0.107929}},"destinationCity":{"id":26,"name":"Nice","location":{"latitude":43.696036,"longitude":7.265592}},"distance":1132},{"sourceCity":{"id":16,"name":"Le Havre","location":{"latitude":49.49437,"longitude":0.107929}},"destinationCity":{"id":27,"name":"Paris","location":{"latitude":48.856614,"longitude":2.3522219}},"distance":211},{"sourceCity":{"id":16,"name":"Le Havre","location":{"latitude":49.49437,"longitude":0.107929}},"destinationCity":{"id":28,"name":"Prague","location":{"latitude":50.0755381,"longitude":14.4378005}},"distance":1305},{"sourceCity":{"id":16,"name":"Le Havre","location":{"latitude":49.49437,"longitude":0.107929}},"destinationCity":{"id":29,"name":"Rome","location":{"latitude":41.8929163,"longitude":12.4825199}},"distance":1758},{"sourceCity":{"id":16,"name":"Le Havre","location":{"latitude":49.49437,"longitude":0.107929}},"destinationCity":{"id":30,"name":"Rotterdam","location":{"latitude":51.92421599999999,"longitude":4.481776}},"distance":553},{"sourceCity":{"id":16,"name":"Le Havre","location":{"latitude":49.49437,"longitude":0.107929}},"destinationCity":{"id":31,"name":"Strasbourg","location":{"latitude":48.583148,"longitude":7.747882}},"distance":667},{"sourceCity":{"id":16,"name":"Le Havre","location":{"latitude":49.49437,"longitude":0.107929}},"destinationCity":{"id":32,"name":"Stuttgart","location":{"latitude":48.7754181,"longitude":9.181758799999999}},"distance":832},{"sourceCity":{"id":16,"name":"Le Havre","location":{"latitude":49.49437,"longitude":0.107929}},"destinationCity":{"id":33,"name":"The Hague","location":{"latitude":52.0704978,"longitude":4.3006999}},"distance":577},{"sourceCity":{"id":16,"name":"Le Havre","location":{"latitude":49.49437,"longitude":0.107929}},"destinationCity":{"id":34,"name":"Turin","location":{"latitude":45.07098200000001,"longitude":7.685676}},"distance":1047},{"sourceCity":{"id":16,"name":"Le Havre","location":{"latitude":49.49437,"longitude":0.107929}},"destinationCity":{"id":35,"name":"Venice","location":{"latitude":45.4408474,"longitude":12.3155151}},"distance":1382},{"sourceCity":{"id":16,"name":"Le Havre","location":{"latitude":49.49437,"longitude":0.107929}},"destinationCity":{"id":36,"name":"Vienna","location":{"latitude":48.2081743,"longitude":16.3738189}},"distance":1496},{"sourceCity":{"id":16,"name":"Le Havre","location":{"latitude":49.49437,"longitude":0.107929}},"destinationCity":{"id":37,"name":"Zurich","location":{"latitude":47.3686498,"longitude":8.539182499999999}},"distance":767},{"sourceCity":{"id":18,"name":"London","location":{"latitude":51.51121389999999,"longitude":-0.1198244}},"destinationCity":{"id":19,"name":"Luxembourg","location":{"latitude":49.815273,"longitude":6.129582999999999}},"distance":538},{"sourceCity":{"id":18,"name":"London","location":{"latitude":51.51121389999999,"longitude":-0.1198244}},"destinationCity":{"id":20,"name":"Lyon","location":{"latitude":45.764043,"longitude":4.835659}},"distance":884},{"sourceCity":{"id":18,"name":"London","location":{"latitude":51.51121389999999,"longitude":-0.1198244}},"destinationCity":{"id":21,"name":"Madrid","location":{"latitude":40.4167754,"longitude":-3.7037902}},"distance":1704},{"sourceCity":{"id":18,"name":"London","location":{"latitude":51.51121389999999,"longitude":-0.1198244}},"destinationCity":{"id":22,"name":"Marseille","location":{"latitude":43.296482,"longitude":5.36978}},"distance":1192},{"sourceCity":{"id":18,"name":"London","location":{"latitude":51.51121389999999,"longitude":-0.1198244}},"destinationCity":{"id":23,"name":"Milan","location":{"latitude":45.4654542,"longitude":9.186516}},"distance":1215},{"sourceCity":{"id":18,"name":"London","location":{"latitude":51.51121389999999,"longitude":-0.1198244}},"destinationCity":{"id":24,"name":"Munich","location":{"latitude":48.1351253,"longitude":11.5819806}},"distance":1075},{"sourceCity":{"id":18,"name":"London","location":{"latitude":51.51121389999999,"longitude":-0.1198244}},"destinationCity":{"id":25,"name":"Naples","location":{"latitude":26.1420358,"longitude":-81.7948103}},"distance":1996},{"sourceCity":{"id":18,"name":"London","location":{"latitude":51.51121389999999,"longitude":-0.1198244}},"destinationCity":{"id":26,"name":"Nice","location":{"latitude":43.696036,"longitude":7.265592}},"distance":1347},{"sourceCity":{"id":18,"name":"London","location":{"latitude":51.51121389999999,"longitude":-0.1198244}},"destinationCity":{"id":27,"name":"Paris","location":{"latitude":48.856614,"longitude":2.3522219}},"distance":414},{"sourceCity":{"id":18,"name":"London","location":{"latitude":51.51121389999999,"longitude":-0.1198244}},"destinationCity":{"id":28,"name":"Prague","location":{"latitude":50.0755381,"longitude":14.4378005}},"distance":1204},{"sourceCity":{"id":18,"name":"London","location":{"latitude":51.51121389999999,"longitude":-0.1198244}},"destinationCity":{"id":29,"name":"Rome","location":{"latitude":41.8929163,"longitude":12.4825199}},"distance":1799},{"sourceCity":{"id":18,"name":"London","location":{"latitude":51.51121389999999,"longitude":-0.1198244}},"destinationCity":{"id":30,"name":"Rotterdam","location":{"latitude":51.92421599999999,"longitude":4.481776}},"distance":432},{"sourceCity":{"id":18,"name":"London","location":{"latitude":51.51121389999999,"longitude":-0.1198244}},"destinationCity":{"id":31,"name":"Strasbourg","location":{"latitude":48.583148,"longitude":7.747882}},"distance":744},{"sourceCity":{"id":18,"name":"London","location":{"latitude":51.51121389999999,"longitude":-0.1198244}},"destinationCity":{"id":32,"name":"Stuttgart","location":{"latitude":48.7754181,"longitude":9.181758799999999}},"distance":866},{"sourceCity":{"id":18,"name":"London","location":{"latitude":51.51121389999999,"longitude":-0.1198244}},"destinationCity":{"id":33,"name":"The Hague","location":{"latitude":52.0704978,"longitude":4.3006999}},"distance":473},{"sourceCity":{"id":18,"name":"London","location":{"latitude":51.51121389999999,"longitude":-0.1198244}},"destinationCity":{"id":34,"name":"Turin","location":{"latitude":45.07098200000001,"longitude":7.685676}},"distance":1118},{"sourceCity":{"id":18,"name":"London","location":{"latitude":51.51121389999999,"longitude":-0.1198244}},"destinationCity":{"id":35,"name":"Venice","location":{"latitude":45.4408474,"longitude":12.3155151}},"distance":1478},{"sourceCity":{"id":18,"name":"London","location":{"latitude":51.51121389999999,"longitude":-0.1198244}},"destinationCity":{"id":36,"name":"Vienna","location":{"latitude":48.2081743,"longitude":16.3738189}},"distance":912},{"sourceCity":{"id":18,"name":"London","location":{"latitude":51.51121389999999,"longitude":-0.1198244}},"destinationCity":{"id":37,"name":"Zurich","location":{"latitude":47.3686498,"longitude":8.539182499999999}},"distance":963},{"sourceCity":{"id":20,"name":"Lyon","location":{"latitude":45.764043,"longitude":4.835659}},"destinationCity":{"id":21,"name":"Madrid","location":{"latitude":40.4167754,"longitude":-3.7037902}},"distance":1272},{"sourceCity":{"id":20,"name":"Lyon","location":{"latitude":45.764043,"longitude":4.835659}},"destinationCity":{"id":22,"name":"Marseille","location":{"latitude":43.296482,"longitude":5.36978}},"distance":328},{"sourceCity":{"id":20,"name":"Lyon","location":{"latitude":45.764043,"longitude":4.835659}},"destinationCity":{"id":23,"name":"Milan","location":{"latitude":45.4654542,"longitude":9.186516}},"distance":494},{"sourceCity":{"id":20,"name":"Lyon","location":{"latitude":45.764043,"longitude":4.835659}},"destinationCity":{"id":24,"name":"Munich","location":{"latitude":48.1351253,"longitude":11.5819806}},"distance":753},{"sourceCity":{"id":20,"name":"Lyon","location":{"latitude":45.764043,"longitude":4.835659}},"destinationCity":{"id":25,"name":"Naples","location":{"latitude":26.1420358,"longitude":-81.7948103}},"distance":1299},{"sourceCity":{"id":20,"name":"Lyon","location":{"latitude":45.764043,"longitude":4.835659}},"destinationCity":{"id":26,"name":"Nice","location":{"latitude":43.696036,"longitude":7.265592}},"distance":440},{"sourceCity":{"id":20,"name":"Lyon","location":{"latitude":45.764043,"longitude":4.835659}},"destinationCity":{"id":27,"name":"Paris","location":{"latitude":48.856614,"longitude":2.3522219}},"distance":481},{"sourceCity":{"id":20,"name":"Lyon","location":{"latitude":45.764043,"longitude":4.835659}},"destinationCity":{"id":28,"name":"Prague","location":{"latitude":50.0755381,"longitude":14.4378005}},"distance":1116},{"sourceCity":{"id":20,"name":"Lyon","location":{"latitude":45.764043,"longitude":4.835659}},"destinationCity":{"id":29,"name":"Rome","location":{"latitude":41.8929163,"longitude":12.4825199}},"distance":1066},{"sourceCity":{"id":20,"name":"Lyon","location":{"latitude":45.764043,"longitude":4.835659}},"destinationCity":{"id":30,"name":"Rotterdam","location":{"latitude":51.92421599999999,"longitude":4.481776}},"distance":921},{"sourceCity":{"id":20,"name":"Lyon","location":{"latitude":45.764043,"longitude":4.835659}},"destinationCity":{"id":31,"name":"Strasbourg","location":{"latitude":48.583148,"longitude":7.747882}},"distance":428},{"sourceCity":{"id":20,"name":"Lyon","location":{"latitude":45.764043,"longitude":4.835659}},"destinationCity":{"id":32,"name":"Stuttgart","location":{"latitude":48.7754181,"longitude":9.181758799999999}},"distance":667},{"sourceCity":{"id":20,"name":"Lyon","location":{"latitude":45.764043,"longitude":4.835659}},"destinationCity":{"id":33,"name":"The Hague","location":{"latitude":52.0704978,"longitude":4.3006999}},"distance":945},{"sourceCity":{"id":20,"name":"Lyon","location":{"latitude":45.764043,"longitude":4.835659}},"destinationCity":{"id":34,"name":"Turin","location":{"latitude":45.07098200000001,"longitude":7.685676}},"distance":355},{"sourceCity":{"id":20,"name":"Lyon","location":{"latitude":45.764043,"longitude":4.835659}},"destinationCity":{"id":35,"name":"Venice","location":{"latitude":45.4408474,"longitude":12.3155151}},"distance":789},{"sourceCity":{"id":20,"name":"Lyon","location":{"latitude":45.764043,"longitude":4.835659}},"destinationCity":{"id":36,"name":"Vienna","location":{"latitude":48.2081743,"longitude":16.3738189}},"distance":1217},{"sourceCity":{"id":20,"name":"Lyon","location":{"latitude":45.764043,"longitude":4.835659}},"destinationCity":{"id":37,"name":"Zurich","location":{"latitude":47.3686498,"longitude":8.539182499999999}},"distance":404},{"sourceCity":{"id":22,"name":"Marseille","location":{"latitude":43.296482,"longitude":5.36978}},"destinationCity":{"id":23,"name":"Milan","location":{"latitude":45.4654542,"longitude":9.186516}},"distance":587},{"sourceCity":{"id":22,"name":"Marseille","location":{"latitude":43.296482,"longitude":5.36978}},"destinationCity":{"id":24,"name":"Munich","location":{"latitude":48.1351253,"longitude":11.5819806}},"distance":1034},{"sourceCity":{"id":22,"name":"Marseille","location":{"latitude":43.296482,"longitude":5.36978}},"destinationCity":{"id":25,"name":"Naples","location":{"latitude":26.1420358,"longitude":-81.7948103}},"distance":1189},{"sourceCity":{"id":22,"name":"Marseille","location":{"latitude":43.296482,"longitude":5.36978}},"destinationCity":{"id":26,"name":"Nice","location":{"latitude":43.696036,"longitude":7.265592}},"distance":227},{"sourceCity":{"id":22,"name":"Marseille","location":{"latitude":43.296482,"longitude":5.36978}},"destinationCity":{"id":27,"name":"Paris","location":{"latitude":48.856614,"longitude":2.3522219}},"distance":809},{"sourceCity":{"id":22,"name":"Marseille","location":{"latitude":43.296482,"longitude":5.36978}},"destinationCity":{"id":28,"name":"Prague","location":{"latitude":50.0755381,"longitude":14.4378005}},"distance":1397},{"sourceCity":{"id":22,"name":"Marseille","location":{"latitude":43.296482,"longitude":5.36978}},"destinationCity":{"id":29,"name":"Rome","location":{"latitude":41.8929163,"longitude":12.4825199}},"distance":856},{"sourceCity":{"id":22,"name":"Marseille","location":{"latitude":43.296482,"longitude":5.36978}},"destinationCity":{"id":30,"name":"Rotterdam","location":{"latitude":51.92421599999999,"longitude":4.481776}},"distance":1249},{"sourceCity":{"id":22,"name":"Marseille","location":{"latitude":43.296482,"longitude":5.36978}},"destinationCity":{"id":31,"name":"Strasbourg","location":{"latitude":48.583148,"longitude":7.747882}},"distance":814},{"sourceCity":{"id":22,"name":"Marseille","location":{"latitude":43.296482,"longitude":5.36978}},"destinationCity":{"id":32,"name":"Stuttgart","location":{"latitude":48.7754181,"longitude":9.181758799999999}},"distance":948},{"sourceCity":{"id":22,"name":"Marseille","location":{"latitude":43.296482,"longitude":5.36978}},"destinationCity":{"id":33,"name":"The Hague","location":{"latitude":52.0704978,"longitude":4.3006999}},"distance":1273},{"sourceCity":{"id":22,"name":"Marseille","location":{"latitude":43.296482,"longitude":5.36978}},"destinationCity":{"id":34,"name":"Turin","location":{"latitude":45.07098200000001,"longitude":7.685676}},"distance":434},{"sourceCity":{"id":22,"name":"Marseille","location":{"latitude":43.296482,"longitude":5.36978}},"destinationCity":{"id":35,"name":"Venice","location":{"latitude":45.4408474,"longitude":12.3155151}},"distance":812},{"sourceCity":{"id":22,"name":"Marseille","location":{"latitude":43.296482,"longitude":5.36978}},"destinationCity":{"id":36,"name":"Vienna","location":{"latitude":48.2081743,"longitude":16.3738189}},"distance":1414},{"sourceCity":{"id":22,"name":"Marseille","location":{"latitude":43.296482,"longitude":5.36978}},"destinationCity":{"id":37,"name":"Zurich","location":{"latitude":47.3686498,"longitude":8.539182499999999}},"distance":721},{"sourceCity":{"id":24,"name":"Munich","location":{"latitude":48.1351253,"longitude":11.5819806}},"destinationCity":{"id":25,"name":"Naples","location":{"latitude":26.1420358,"longitude":-81.7948103}},"distance":1202},{"sourceCity":{"id":24,"name":"Munich","location":{"latitude":48.1351253,"longitude":11.5819806}},"destinationCity":{"id":26,"name":"Nice","location":{"latitude":43.696036,"longitude":7.265592}},"distance":911},{"sourceCity":{"id":24,"name":"Munich","location":{"latitude":48.1351253,"longitude":11.5819806}},"destinationCity":{"id":27,"name":"Paris","location":{"latitude":48.856614,"longitude":2.3522219}},"distance":827},{"sourceCity":{"id":24,"name":"Munich","location":{"latitude":48.1351253,"longitude":11.5819806}},"destinationCity":{"id":28,"name":"Prague","location":{"latitude":50.0755381,"longitude":14.4378005}},"distance":363},{"sourceCity":{"id":24,"name":"Munich","location":{"latitude":48.1351253,"longitude":11.5819806}},"destinationCity":{"id":29,"name":"Rome","location":{"latitude":41.8929163,"longitude":12.4825199}},"distance":969},{"sourceCity":{"id":24,"name":"Munich","location":{"latitude":48.1351253,"longitude":11.5819806}},"destinationCity":{"id":30,"name":"Rotterdam","location":{"latitude":51.92421599999999,"longitude":4.481776}},"distance":827},{"sourceCity":{"id":24,"name":"Munich","location":{"latitude":48.1351253,"longitude":11.5819806}},"destinationCity":{"id":31,"name":"Strasbourg","location":{"latitude":48.583148,"longitude":7.747882}},"distance":371},{"sourceCity":{"id":24,"name":"Munich","location":{"latitude":48.1351253,"longitude":11.5819806}},"destinationCity":{"id":32,"name":"Stuttgart","location":{"latitude":48.7754181,"longitude":9.181758799999999}},"distance":218},{"sourceCity":{"id":24,"name":"Munich","location":{"latitude":48.1351253,"longitude":11.5819806}},"destinationCity":{"id":33,"name":"The Hague","location":{"latitude":52.0704978,"longitude":4.3006999}},"distance":870},{"sourceCity":{"id":24,"name":"Munich","location":{"latitude":48.1351253,"longitude":11.5819806}},"destinationCity":{"id":34,"name":"Turin","location":{"latitude":45.07098200000001,"longitude":7.685676}},"distance":691},{"sourceCity":{"id":24,"name":"Munich","location":{"latitude":48.1351253,"longitude":11.5819806}},"destinationCity":{"id":35,"name":"Venice","location":{"latitude":45.4408474,"longitude":12.3155151}},"distance":504},{"sourceCity":{"id":24,"name":"Munich","location":{"latitude":48.1351253,"longitude":11.5819806}},"destinationCity":{"id":36,"name":"Vienna","location":{"latitude":48.2081743,"longitude":16.3738189}},"distance":458},{"sourceCity":{"id":24,"name":"Munich","location":{"latitude":48.1351253,"longitude":11.5819806}},"destinationCity":{"id":37,"name":"Zurich","location":{"latitude":47.3686498,"longitude":8.539182499999999}},"distance":313},{"sourceCity":{"id":26,"name":"Nice","location":{"latitude":43.696036,"longitude":7.265592}},"destinationCity":{"id":27,"name":"Paris","location":{"latitude":48.856614,"longitude":2.3522219}},"distance":921},{"sourceCity":{"id":26,"name":"Nice","location":{"latitude":43.696036,"longitude":7.265592}},"destinationCity":{"id":28,"name":"Prague","location":{"latitude":50.0755381,"longitude":14.4378005}},"distance":1274},{"sourceCity":{"id":26,"name":"Nice","location":{"latitude":43.696036,"longitude":7.265592}},"destinationCity":{"id":29,"name":"Rome","location":{"latitude":41.8929163,"longitude":12.4825199}},"distance":729},{"sourceCity":{"id":26,"name":"Nice","location":{"latitude":43.696036,"longitude":7.265592}},"destinationCity":{"id":30,"name":"Rotterdam","location":{"latitude":51.92421599999999,"longitude":4.481776}},"distance":1361},{"sourceCity":{"id":26,"name":"Nice","location":{"latitude":43.696036,"longitude":7.265592}},"destinationCity":{"id":31,"name":"Strasbourg","location":{"latitude":48.583148,"longitude":7.747882}},"distance":868},{"sourceCity":{"id":26,"name":"Nice","location":{"latitude":43.696036,"longitude":7.265592}},"destinationCity":{"id":32,"name":"Stuttgart","location":{"latitude":48.7754181,"longitude":9.181758799999999}},"distance":892},{"sourceCity":{"id":26,"name":"Nice","location":{"latitude":43.696036,"longitude":7.265592}},"destinationCity":{"id":33,"name":"The Hague","location":{"latitude":52.0704978,"longitude":4.3006999}},"distance":1385},{"sourceCity":{"id":26,"name":"Nice","location":{"latitude":43.696036,"longitude":7.265592}},"destinationCity":{"id":34,"name":"Turin","location":{"latitude":45.07098200000001,"longitude":7.685676}},"distance":207},{"sourceCity":{"id":26,"name":"Nice","location":{"latitude":43.696036,"longitude":7.265592}},"destinationCity":{"id":35,"name":"Venice","location":{"latitude":45.4408474,"longitude":12.3155151}},"distance":585},{"sourceCity":{"id":26,"name":"Nice","location":{"latitude":43.696036,"longitude":7.265592}},"destinationCity":{"id":36,"name":"Vienna","location":{"latitude":48.2081743,"longitude":16.3738189}},"distance":1187},{"sourceCity":{"id":26,"name":"Nice","location":{"latitude":43.696036,"longitude":7.265592}},"destinationCity":{"id":37,"name":"Zurich","location":{"latitude":47.3686498,"longitude":8.539182499999999}},"distance":665},{"sourceCity":{"id":28,"name":"Prague","location":{"latitude":50.0755381,"longitude":14.4378005}},"destinationCity":{"id":29,"name":"Rome","location":{"latitude":41.8929163,"longitude":12.4825199}},"distance":1370},{"sourceCity":{"id":28,"name":"Prague","location":{"latitude":50.0755381,"longitude":14.4378005}},"destinationCity":{"id":30,"name":"Rotterdam","location":{"latitude":51.92421599999999,"longitude":4.481776}},"distance":858},{"sourceCity":{"id":28,"name":"Prague","location":{"latitude":50.0755381,"longitude":14.4378005}},"destinationCity":{"id":31,"name":"Strasbourg","location":{"latitude":48.583148,"longitude":7.747882}},"distance":638},{"sourceCity":{"id":28,"name":"Prague","location":{"latitude":50.0755381,"longitude":14.4378005}},"destinationCity":{"id":32,"name":"Stuttgart","location":{"latitude":48.7754181,"longitude":9.181758799999999}},"distance":773},{"sourceCity":{"id":28,"name":"Prague","location":{"latitude":50.0755381,"longitude":14.4378005}},"destinationCity":{"id":33,"name":"The Hague","location":{"latitude":52.0704978,"longitude":4.3006999}},"distance":1028},{"sourceCity":{"id":28,"name":"Prague","location":{"latitude":50.0755381,"longitude":14.4378005}},"destinationCity":{"id":34,"name":"Turin","location":{"latitude":45.07098200000001,"longitude":7.685676}},"distance":991},{"sourceCity":{"id":28,"name":"Prague","location":{"latitude":50.0755381,"longitude":14.4378005}},"destinationCity":{"id":35,"name":"Venice","location":{"latitude":45.4408474,"longitude":12.3155151}},"distance":798},{"sourceCity":{"id":28,"name":"Prague","location":{"latitude":50.0755381,"longitude":14.4378005}},"destinationCity":{"id":36,"name":"Vienna","location":{"latitude":48.2081743,"longitude":16.3738189}},"distance":312},{"sourceCity":{"id":28,"name":"Prague","location":{"latitude":50.0755381,"longitude":14.4378005}},"destinationCity":{"id":37,"name":"Zurich","location":{"latitude":47.3686498,"longitude":8.539182499999999}},"distance":676},{"sourceCity":{"id":30,"name":"Rotterdam","location":{"latitude":51.92421599999999,"longitude":4.481776}},"destinationCity":{"id":31,"name":"Strasbourg","location":{"latitude":48.583148,"longitude":7.747882}},"distance":644},{"sourceCity":{"id":30,"name":"Rotterdam","location":{"latitude":51.92421599999999,"longitude":4.481776}},"destinationCity":{"id":32,"name":"Stuttgart","location":{"latitude":48.7754181,"longitude":9.181758799999999}},"distance":676},{"sourceCity":{"id":30,"name":"Rotterdam","location":{"latitude":51.92421599999999,"longitude":4.481776}},"destinationCity":{"id":33,"name":"The Hague","location":{"latitude":52.0704978,"longitude":4.3006999}},"distance":47},{"sourceCity":{"id":30,"name":"Rotterdam","location":{"latitude":51.92421599999999,"longitude":4.481776}},"destinationCity":{"id":34,"name":"Turin","location":{"latitude":45.07098200000001,"longitude":7.685676}},"distance":1190},{"sourceCity":{"id":30,"name":"Rotterdam","location":{"latitude":51.92421599999999,"longitude":4.481776}},"destinationCity":{"id":35,"name":"Venice","location":{"latitude":45.4408474,"longitude":12.3155151}},"distance":1335},{"sourceCity":{"id":30,"name":"Rotterdam","location":{"latitude":51.92421599999999,"longitude":4.481776}},"destinationCity":{"id":36,"name":"Vienna","location":{"latitude":48.2081743,"longitude":16.3738189}},"distance":1169},{"sourceCity":{"id":30,"name":"Rotterdam","location":{"latitude":51.92421599999999,"longitude":4.481776}},"destinationCity":{"id":37,"name":"Zurich","location":{"latitude":47.3686498,"longitude":8.539182499999999}},"distance":787},{"sourceCity":{"id":32,"name":"Stuttgart","location":{"latitude":48.7754181,"longitude":9.181758799999999}},"destinationCity":{"id":33,"name":"The Hague","location":{"latitude":52.0704978,"longitude":4.3006999}},"distance":673},{"sourceCity":{"id":32,"name":"Stuttgart","location":{"latitude":48.7754181,"longitude":9.181758799999999}},"destinationCity":{"id":34,"name":"Turin","location":{"latitude":45.07098200000001,"longitude":7.685676}},"distance":642},{"sourceCity":{"id":32,"name":"Stuttgart","location":{"latitude":48.7754181,"longitude":9.181758799999999}},"destinationCity":{"id":35,"name":"Venice","location":{"latitude":45.4408474,"longitude":12.3155151}},"distance":680},{"sourceCity":{"id":32,"name":"Stuttgart","location":{"latitude":48.7754181,"longitude":9.181758799999999}},"destinationCity":{"id":36,"name":"Vienna","location":{"latitude":48.2081743,"longitude":16.3738189}},"distance":676},{"sourceCity":{"id":32,"name":"Stuttgart","location":{"latitude":48.7754181,"longitude":9.181758799999999}},"destinationCity":{"id":37,"name":"Zurich","location":{"latitude":47.3686498,"longitude":8.539182499999999}},"distance":227},{"sourceCity":{"id":34,"name":"Turin","location":{"latitude":45.07098200000001,"longitude":7.685676}},"destinationCity":{"id":35,"name":"Venice","location":{"latitude":45.4408474,"longitude":12.3155151}},"distance":434},{"sourceCity":{"id":34,"name":"Turin","location":{"latitude":45.07098200000001,"longitude":7.685676}},"destinationCity":{"id":36,"name":"Vienna","location":{"latitude":48.2081743,"longitude":16.3738189}},"distance":1026},{"sourceCity":{"id":34,"name":"Turin","location":{"latitude":45.07098200000001,"longitude":7.685676}},"destinationCity":{"id":37,"name":"Zurich","location":{"latitude":47.3686498,"longitude":8.539182499999999}},"distance":444},{"sourceCity":{"id":36,"name":"Vienna","location":{"latitude":48.2081743,"longitude":16.3738189}},"destinationCity":{"id":37,"name":"Zurich","location":{"latitude":47.3686498,"longitude":8.539182499999999}},"distance":784}]